[
  {
    "id": 30180,
    "name": "Wainuiomata River at Manuka Track",
    "siteId": "30180",
    "latitude": -41.25677265,
    "longitude": 175.00892684,
    "state": "Wellington",
    "country": "NZ",
    "source": "LAWA",
    "zone": "Wellington Harbour and Hutt Valley",
    "metric": "CMS",
    "pageUrl": "https://www.lawa.org.nz//explore-data/wellington-region/water-quantity/surface-water-zones/wellington-harbour-and-hutt-valley/wainuiomata-river-at-manuka-track"
  },
  {
    "id": 30181,
    "name": "Wainuiomata River at Leonard Wood Park",
    "siteId": "30181",
    "latitude": -41.28400515,
    "longitude": 174.94738309,
    "state": "Wellington",
    "country": "NZ",
    "source": "LAWA",
    "zone": "Wellington Harbour and Hutt Valley",
    "metric": "CMS",
    "pageUrl": "https://www.lawa.org.nz//explore-data/wellington-region/water-quantity/surface-water-zones/wellington-harbour-and-hutt-valley/wainuiomata-river-at-leonard-wood-park"
  },
  {
    "id": 30185,
    "name": "Orongorongo River at Truss Bridge",
    "siteId": "30185",
    "latitude": -41.29704076,
    "longitude": 175.0326634,
    "state": "Wellington",
    "country": "NZ",
    "source": "LAWA",
    "zone": "Wellington Harbour and Hutt Valley",
    "metric": "CMS",
    "pageUrl": "https://www.lawa.org.nz//explore-data/wellington-region/water-quantity/surface-water-zones/wellington-harbour-and-hutt-valley/orongorongo-river-at-truss-bridge"
  },
  {
    "id": 30186,
    "name": "Mangaroa River at Te Marua",
    "siteId": "30186",
    "latitude": -41.09432204,
    "longitude": 175.1280911,
    "state": "Wellington",
    "country": "NZ",
    "source": "LAWA",
    "zone": "Wellington Harbour and Hutt Valley",
    "metric": "CMS",
    "pageUrl": "https://www.lawa.org.nz//explore-data/wellington-region/water-quantity/surface-water-zones/wellington-harbour-and-hutt-valley/mangaroa-river-at-te-marua"
  },
  {
    "id": 30187,
    "name": "Hutt River at Taita Gorge",
    "siteId": "30187",
    "latitude": -41.15660826,
    "longitude": 174.984782,
    "state": "Wellington",
    "country": "NZ",
    "source": "LAWA",
    "zone": "Wellington Harbour and Hutt Valley",
    "metric": "CMS",
    "pageUrl": "https://www.lawa.org.nz//explore-data/wellington-region/water-quantity/surface-water-zones/wellington-harbour-and-hutt-valley/hutt-river-at-taita-gorge"
  },
  {
    "id": 30188,
    "name": "Hutt River at Kaitoke",
    "siteId": "30188",
    "latitude": -41.05101129,
    "longitude": 175.19123118,
    "state": "Wellington",
    "country": "NZ",
    "source": "LAWA",
    "zone": "Wellington Harbour and Hutt Valley",
    "metric": "CMS",
    "pageUrl": "https://www.lawa.org.nz//explore-data/wellington-region/water-quantity/surface-water-zones/wellington-harbour-and-hutt-valley/hutt-river-at-kaitoke"
  },
  {
    "id": 30189,
    "name": "Hutt River at Birchville",
    "siteId": "30189",
    "latitude": -41.10017595,
    "longitude": 175.09076014,
    "state": "Wellington",
    "country": "NZ",
    "source": "LAWA",
    "zone": "Wellington Harbour and Hutt Valley",
    "metric": "CMS",
    "pageUrl": "https://www.lawa.org.nz//explore-data/wellington-region/water-quantity/surface-water-zones/wellington-harbour-and-hutt-valley/hutt-river-at-birchville"
  },
  {
    "id": 30206,
    "name": "Akatarawa River at Cemetery",
    "siteId": "30206",
    "latitude": -41.08584512,
    "longitude": 175.0986985,
    "state": "Wellington",
    "country": "NZ",
    "source": "LAWA",
    "zone": "Wellington Harbour and Hutt Valley",
    "metric": "CMS",
    "pageUrl": "https://www.lawa.org.nz//explore-data/wellington-region/water-quantity/surface-water-zones/wellington-harbour-and-hutt-valley/akatarawa-river-at-cemetery"
  },
  {
    "id": 30177,
    "name": "Waitohu Stream at Water Supply Intake",
    "siteId": "30177",
    "latitude": -40.76666669,
    "longitude": 175.21423898,
    "state": "Wellington",
    "country": "NZ",
    "source": "LAWA",
    "zone": "Wellington Kaipiti Coast",
    "metric": "CMS",
    "pageUrl": "https://www.lawa.org.nz//explore-data/wellington-region/water-quantity/surface-water-zones/kapiti-coast/waitohu-stream-at-water-supply-intake"
  },
  {
    "id": 30178,
    "name": "Otaki River at Pukehinau",
    "siteId": "30178",
    "latitude": -40.8220466,
    "longitude": 175.19957526,
    "state": "Wellington",
    "country": "NZ",
    "source": "LAWA",
    "zone": "Wellington Kaipiti Coast",
    "metric": "CMS",
    "pageUrl": "https://www.lawa.org.nz//explore-data/wellington-region/water-quantity/surface-water-zones/kapiti-coast/otaki-river-at-pukehinau"
  },
  {
    "id": 30179,
    "name": "Mangaone Stream at Ratanui",
    "siteId": "30179",
    "latitude": -40.82742334,
    "longitude": 175.15669569,
    "state": "Wellington",
    "country": "NZ",
    "source": "LAWA",
    "zone": "Wellington Kaipiti Coast",
    "metric": "CMS",
    "pageUrl": "https://www.lawa.org.nz//explore-data/wellington-region/water-quantity/surface-water-zones/kapiti-coast/mangaone-stream-at-ratanui"
  },
  {
    "id": 30205,
    "name": "Waikanae River at Water Treatment Plant",
    "siteId": "30205",
    "latitude": -40.88809773,
    "longitude": 175.07274447,
    "state": "Wellington",
    "country": "NZ",
    "source": "LAWA",
    "zone": "Wellington Kaipiti Coast",
    "metric": "CMS",
    "pageUrl": "https://www.lawa.org.nz//explore-data/wellington-region/water-quantity/surface-water-zones/kapiti-coast/waikanae-river-at-water-treatment-plant"
  },
  {
    "id": 30191,
    "name": "Waipoua River at Mikimiki Bridge",
    "siteId": "30191",
    "latitude": -40.84517651,
    "longitude": 175.61744894,
    "state": "Wellington",
    "country": "NZ",
    "source": "LAWA",
    "zone": "Wellington Ruamahanga",
    "metric": "CMS",
    "pageUrl": "https://www.lawa.org.nz//explore-data/wellington-region/water-quantity/surface-water-zones/ruamahanga/waipoua-river-at-mikimiki-bridge"
  },
  {
    "id": 30193,
    "name": "Tauherenikau at Gorge",
    "siteId": "30193",
    "latitude": -41.06814004,
    "longitude": 175.35741926,
    "state": "Wellington",
    "country": "NZ",
    "source": "LAWA",
    "zone": "Wellington Ruamahanga",
    "metric": "CMS",
    "pageUrl": "https://www.lawa.org.nz//explore-data/wellington-region/water-quantity/surface-water-zones/ruamahanga/tauherenikau-at-gorge"
  },
  {
    "id": 30194,
    "name": "Taueru River at Te Whiti Rd Bridge",
    "siteId": "30194",
    "latitude": -41.06337984,
    "longitude": 175.66805882,
    "state": "Wellington",
    "country": "NZ",
    "source": "LAWA",
    "zone": "Wellington Ruamahanga",
    "metric": "CMS",
    "pageUrl": "https://www.lawa.org.nz//explore-data/wellington-region/water-quantity/surface-water-zones/ruamahanga/taueru-river-at-te-whiti-rd-bridge"
  },
  {
    "id": 30195,
    "name": "Ruamahanga River at Wardells",
    "siteId": "30195",
    "latitude": -41.00481677,
    "longitude": 175.67236373,
    "state": "Wellington",
    "country": "NZ",
    "source": "LAWA",
    "zone": "Wellington Ruamahanga",
    "metric": "CMS",
    "pageUrl": "https://www.lawa.org.nz//explore-data/wellington-region/water-quantity/surface-water-zones/ruamahanga/ruamahanga-river-at-wardells"
  },
  {
    "id": 30196,
    "name": "Ruamahanga River at Waihenga Bridge",
    "siteId": "30196",
    "latitude": -41.19685836,
    "longitude": 175.43999678,
    "state": "Wellington",
    "country": "NZ",
    "source": "LAWA",
    "zone": "Wellington Ruamahanga",
    "metric": "CMS",
    "pageUrl": "https://www.lawa.org.nz//explore-data/wellington-region/water-quantity/surface-water-zones/ruamahanga/ruamahanga-river-at-waihenga-bridge"
  },
  {
    "id": 30197,
    "name": "Papawai Stream at u/s Oxi Pond conf.",
    "siteId": "30197",
    "latitude": -41.10309313,
    "longitude": 175.49064027,
    "state": "Wellington",
    "country": "NZ",
    "source": "LAWA",
    "zone": "Wellington Ruamahanga",
    "metric": "CMS",
    "pageUrl": "https://www.lawa.org.nz//explore-data/wellington-region/water-quantity/surface-water-zones/ruamahanga/papawai-stream-at-us-oxi-pond-conf"
  },
  {
    "id": 30199,
    "name": "Otukura Stream at Weir",
    "siteId": "30199",
    "latitude": -41.18728715,
    "longitude": 175.36738907,
    "state": "Wellington",
    "country": "NZ",
    "source": "LAWA",
    "zone": "Wellington Ruamahanga",
    "metric": "CMS",
    "pageUrl": "https://www.lawa.org.nz//explore-data/wellington-region/water-quantity/surface-water-zones/ruamahanga/otukura-stream-at-weir"
  },
  {
    "id": 30200,
    "name": "Mangatarere River at SH 2",
    "siteId": "30200",
    "latitude": -41.05477704,
    "longitude": 175.49618121,
    "state": "Wellington",
    "country": "NZ",
    "source": "LAWA",
    "zone": "Wellington Ruamahanga",
    "metric": "CMS",
    "pageUrl": "https://www.lawa.org.nz//explore-data/wellington-region/water-quantity/surface-water-zones/ruamahanga/mangatarere-river-at-sh-2"
  },
  {
    "id": 30201,
    "name": "Mangatarere River at Gorge",
    "siteId": "30201",
    "latitude": -40.93499383,
    "longitude": 175.51186713,
    "state": "Wellington",
    "country": "NZ",
    "source": "LAWA",
    "zone": "Wellington Ruamahanga",
    "metric": "CMS",
    "pageUrl": "https://www.lawa.org.nz//explore-data/wellington-region/water-quantity/surface-water-zones/ruamahanga/mangatarere-river-at-gorge"
  },
  {
    "id": 30203,
    "name": "Kopuaranga River at Stuarts",
    "siteId": "30203",
    "latitude": -40.89357041,
    "longitude": 175.69179599,
    "state": "Wellington",
    "country": "NZ",
    "source": "LAWA",
    "zone": "Wellington Ruamahanga",
    "metric": "CMS",
    "pageUrl": "https://www.lawa.org.nz//explore-data/wellington-region/water-quantity/surface-water-zones/ruamahanga/kopuaranga-river-at-stuarts"
  },
  {
    "id": 30204,
    "name": "Kopuaranga at Palmers Bridge",
    "siteId": "30204",
    "latitude": -40.81893375,
    "longitude": 175.67185573,
    "state": "Wellington",
    "country": "NZ",
    "source": "LAWA",
    "zone": "Wellington Ruamahanga",
    "metric": "CMS",
    "pageUrl": "https://www.lawa.org.nz//explore-data/wellington-region/water-quantity/surface-water-zones/ruamahanga/kopuaranga-at-palmers-bridge"
  },
  {
    "id": 30207,
    "name": "Waiohine River at Gorge",
    "siteId": "30207",
    "latitude": -41.01636817,
    "longitude": 175.40011859,
    "state": "Wellington",
    "country": "NZ",
    "source": "LAWA",
    "zone": "Wellington Ruamahanga",
    "metric": "CMS",
    "pageUrl": "https://www.lawa.org.nz//explore-data/wellington-region/water-quantity/surface-water-zones/ruamahanga/waiohine-river-at-gorge"
  },
  {
    "id": 30208,
    "name": "Waingawa River at Kaituna",
    "siteId": "30208",
    "latitude": -40.88669021,
    "longitude": 175.5229277,
    "state": "Wellington",
    "country": "NZ",
    "source": "LAWA",
    "zone": "Wellington Ruamahanga",
    "metric": "CMS",
    "pageUrl": "https://www.lawa.org.nz//explore-data/wellington-region/water-quantity/surface-water-zones/ruamahanga/waingawa-river-at-kaituna"
  },
  {
    "id": 30209,
    "name": "Ruamahanga River at Mt Bruce",
    "siteId": "30209",
    "latitude": -40.75458017,
    "longitude": 175.59803009,
    "state": "Wellington",
    "country": "NZ",
    "source": "LAWA",
    "zone": "Wellington Ruamahanga",
    "metric": "CMS",
    "pageUrl": "https://www.lawa.org.nz//explore-data/wellington-region/water-quantity/surface-water-zones/ruamahanga/ruamahanga-river-at-mt-bruce"
  },
  {
    "id": 30210,
    "name": "Parkvale Stream at Renalls Weir",
    "siteId": "30210",
    "latitude": -41.07801993,
    "longitude": 175.54166084,
    "state": "Wellington",
    "country": "NZ",
    "source": "LAWA",
    "zone": "Wellington Ruamahanga",
    "metric": "CMS",
    "pageUrl": "https://www.lawa.org.nz//explore-data/wellington-region/water-quantity/surface-water-zones/ruamahanga/parkvale-stream-at-renalls-weir"
  },
  {
    "id": 30245,
    "name": "Taueru River at Te Weraiti",
    "siteId": "30245",
    "latitude": -40.99380965,
    "longitude": 175.75949331,
    "state": "Wellington",
    "country": "NZ",
    "source": "LAWA",
    "zone": "Wellington Ruamahanga",
    "metric": "CMS",
    "pageUrl": "https://www.lawa.org.nz//explore-data/wellington-region/water-quantity/surface-water-zones/ruamahanga/taueru-river-at-te-weraiti"
  }
]
